[{"fullAddress":"7 East 10th Street, New York, NY","latLong":{"lat":"40.7332068","long":"-73.9946888"}},{"fullAddress":"155 East 22nd Street, New York, NY","latLong":{"lat":"40.7384244","long":"-73.9840055"}},{"fullAddress":"61 Fourth Avenue, New York, NY","latLong":{"lat":"40.6822459","long":"-73.9795061"}},{"fullAddress":"208 West 13th Street, New York, NY","latLong":{"lat":"40.7381228","long":"-74.0010304"}},{"fullAddress":"61 Gramercy Park North, New York, NY","latLong":{"lat":"40.7387068","long":"-73.986572"}},{"fullAddress":"123 East 15th Street, New York, NY","latLong":{"lat":"40.7346341","long":"-73.9879773"}},{"fullAddress":"155 East 22nd Street, New York, NY","latLong":{"lat":"40.7384244","long":"-73.9840055"}},{"fullAddress":"125 West 14th Street, New York, NY","latLong":{"lat":"40.7379244","long":"-73.9976813"}},{"fullAddress":"602 East 9th Street, New York, NY","latLong":{"lat":"40.7260409","long":"-73.9800393"}},{"fullAddress":"346 W. 20th Street, New York, NY","latLong":{"lat":"40.7441452","long":"-74.0019191"}},{"fullAddress":"414 East 14th Street, New York, NY","latLong":{"lat":"40.7309298","long":"-73.9819876"}},{"fullAddress":"125 West 14th Street, New York, NY","latLong":{"lat":"40.7379244","long":"-73.9976813"}},{"fullAddress":"127 East 22nd Street, New York, NY","latLong":{"lat":"40.7390247","long":"-73.9854161"}},{"fullAddress":"273 Bowery, New York, NY","latLong":{"lat":"40.7236736","long":"-73.9924832"}},{"fullAddress":"802 Broadway, New York, NY","latLong":{"lat":"40.7320395","long":"-73.991189"}},{"fullAddress":"28 Gramercy Park South, New York, NY","latLong":{"lat":"40.7371499","long":"-73.9853123"}},{"fullAddress":"202 West 24 Street, New York, NY","latLong":{"lat":"40.7449478","long":"-73.995862"}},{"fullAddress":"28 Grammercy Park South, New York, NY","latLong":{"lat":"40.7371499","long":"-73.9853123"}}]